route_id,trip_id,shape_id,trip_headsign,arrival_time,stop_id,stop_sequence,direction_id,timedifference,stop_name,stop_lat,stop_lon,distanceinmiles,speed
M101,OH_H3-Weekday-025000_M101_2,M1010016,EAST VILLAGE 3 AV-6 ST via LEX AV,04:10:00,400448,1,1,,ST NICHOLAS AV/W 192 ST,40.856143,-73.928818,,
M101,OH_H3-Weekday-025000_M101_2,M1010016,EAST VILLAGE 3 AV-6 ST via LEX AV,04:11:42,404008,2,1,0.0283333333333333,AMSTERDAM AV/W 190 ST,40.853438,-73.927069,0.189927801644912,6.703334175702784
M101,OH_H3-Weekday-025000_M101_2,M1010016,EAST VILLAGE 3 AV-6 ST via LEX AV,04:12:15,402764,3,1,0.0091666666666672,AMSTERDAM AV/W 188 ST,40.852241,-73.927959,0.08446529749487283,9.214396090349227
M101,OH_H3-Weekday-025000_M101_2,M1010016,EAST VILLAGE 3 AV-6 ST via LEX AV,04:13:01,405186,4,1,0.0127777777777771,AMSTERDAM AV/W 185 ST,40.850616,-73.929187,0.11474332267319502,8.979912209207043
M101,OH_H3-Weekday-025000_M101_2,M1010016,EAST VILLAGE 3 AV-6 ST via LEX AV,04:13:30,402766,5,1,0.0080555555555559,AMSTERDAM AV/W 184 ST,40.849558,-73.929899,0.07438173628986004,9.233594849775335
M101,OH_H3-Weekday-025000_M101_2,M1010016,EAST VILLAGE 3 AV-6 ST via LEX AV,04:14:07,402767,6,1,0.0102777777777776,AMSTERDAM AV/W 181 ST,40.848228,-73.930845,0.0936877104050925,9.115561012387536
M101,OH_H3-Weekday-025000_M101_2,M1010016,EAST VILLAGE 3 AV-6 ST via LEX AV,04:15:12,402769,7,1,0.0180555555555557,AMSTERDAM AV/W 178 ST,40.845883,-73.932601,0.16551934116714231,9.16722504925704
M101,OH_H3-Weekday-025000_M101_2,M1010016,EAST VILLAGE 3 AV-6 ST via LEX AV,04:16:09,405069,8,1,0.0158333333333331,AMSTERDAM AV/W 175 ST,40.84381,-73.934076,0.14602697601601133,9.222756379958748
M101,OH_H3-Weekday-025000_M101_2,M1010016,EAST VILLAGE 3 AV-6 ST via LEX AV,04:16:59,402772,9,1,0.0138888888888892,AMSTERDAM AV/W 172 ST,40.842043,-73.935378,0.12463932830540227,8.974031637988762
M101,OH_H3-Weekday-025000_M101_2,M1010016,EAST VILLAGE 3 AV-6 ST via LEX AV,04:17:37,402773,10,1,0.0105555555555554,AMSTERDAM AV/W 170 ST,40.840658,-73.936399,0.09769563293953305,9.255375752166426
M101,OH_H3-Weekday-025000_M101_2,M1010016,EAST VILLAGE 3 AV-6 ST via LEX AV,04:18:08,402774,11,1,0.0086111111111106,AMSTERDAM AV/W 168 ST,40.839549,-73.937226,0.0782632387657144,9.088634179244792
M101,OH_H3-Weekday-025000_M101_2,M1010016,EAST VILLAGE 3 AV-6 ST via LEX AV,04:19:02,405070,12,1,0.0150000000000005,AMSTERDAM AV/W 165 ST,40.837603,-73.938646,0.13721160135503718,9.147440090335508
M101,OH_H3-Weekday-025000_M101_2,M1010016,EAST VILLAGE 3 AV-6 ST via LEX AV,04:20:00,404949,13,1,0.0161111111111109,AMSTERDAM AV/W 161 ST,40.835536,-73.940181,0.14584465352069248,9.052426770249998
M101,OH_H3-Weekday-025000_M101_2,M1010016,EAST VILLAGE 3 AV-6 ST via LEX AV,04:21:26,402638,14,1,0.023888888888889,AMSTERDAM AV/W 158 ST,40.833351,-73.941776,0.1540645480342092,6.449213638641284
M101,OH_H3-Weekday-025000_M101_2,M1010016,EAST VILLAGE 3 AV-6 ST via LEX AV,04:22:22,402639,15,1,0.0155555555555553,AMSTERDAM AV/W 156 ST,40.831932,-73.942813,0.10005790674844299,6.432294005257155
M101,OH_H3-Weekday-025000_M101_2,M1010016,EAST VILLAGE 3 AV-6 ST via LEX AV,04:23:47,402641,16,1,0.0236111111111112,AMSTERDAM AV/W 152 ST,40.829745,-73.944372,0.1540644914992716,6.525084345851478
M101,OH_H3-Weekday-025000_M101_2,M1010016,EAST VILLAGE 3 AV-6 ST via LEX AV,04:24:54,402642,17,1,0.0186111111111113,AMSTERDAM AV/W 150 ST,40.82806,-73.945613,0.11885011323767437,6.385976233666021
M101,OH_H3-Weekday-025000_M101_2,M1010016,EAST VILLAGE 3 AV-6 ST via LEX AV,04:25:39,402643,18,1,0.0124999999999992,AMSTERDAM AV/W 148 ST,40.826908,-73.946446,0.08119678019667437,6.495742415734366
M101,OH_H3-Weekday-025000_M101_2,M1010016,EAST VILLAGE 3 AV-6 ST via LEX AV,04:26:56,402644,19,1,0.0213888888888895,AMSTERDAM AV/W 145 ST,40.824949,-73.947888,0.1381727032756593,6.460022490809862
M101,OH_H3-Weekday-025000_M101_2,M1010016,EAST VILLAGE 3 AV-6 ST via LEX AV,04:27:48,402645,20,1,0.014444444444444,AMSTERDAM AV/W 143 ST,40.823629,-73.948866,0.09312663774861088,6.447228767211721
M101,OH_H3-Weekday-025000_M101_2,M1010016,EAST VILLAGE 3 AV-6 ST via LEX AV,04:29:03,402646,21,1,0.020833333333333,AMSTERDAM AV/W 140 ST,40.821716,-73.950244,0.1348137625898287,6.471060604311881
M101,OH_H3-Weekday-025000_M101_2,M1010016,EAST VILLAGE 3 AV-6 ST via LEX AV,04:29:51,402647,22,1,0.0133333333333336,AMSTERDAM AV/W 138 ST,40.820487,-73.95113,0.0866130385090458,6.495977888178305
M101,OH_H3-Weekday-025000_M101_2,M1010016,EAST VILLAGE 3 AV-6 ST via LEX AV,04:31:05,405078,23,1,0.0205555555555552,AMSTERDAM AV/W 135 ST,40.818605,-73.952522,0.13276573167396166,6.458873432787437
M101,OH_H3-Weekday-025000_M101_2,M1010016,EAST VILLAGE 3 AV-6 ST via LEX AV,04:32:48,401458,24,1,0.0286111111111111,AMSTERDAM AV/W 131 ST,40.816009,-73.954424,0.18306518440080533,6.3983947945912565
M101,OH_H3-Weekday-025000_M101_2,M1010016,EAST VILLAGE 3 AV-6 ST via LEX AV,04:33:33,401459,25,1,0.0125000000000001,AMSTERDAM AV/W 129 ST,40.814859,-73.95525,0.08103342319083813,6.482673855266999
M101,OH_H3-Weekday-025000_M101_2,M1010016,EAST VILLAGE 3 AV-6 ST via LEX AV,04:35:00,402653,26,1,0.024166666666666,W 125 ST/AMSTERDAM AV,40.812602,-73.955693,0.1562220060863803,6.4643588725400525
M101,OH_H3-Weekday-025000_M101_2,M1010016,EAST VILLAGE 3 AV-6 ST via LEX AV,04:35:54,402723,27,1,0.0150000000000005,W 125 ST/MORNINGSIDE AV,40.811402,-73.954184,0.08780476322732755,5.8536508818216415
M101,OH_H3-Weekday-025000_M101_2,M1010016,EAST VILLAGE 3 AV-6 ST via LEX AV,04:36:50,402656,28,1,0.0155555555555553,W 125 ST/ST NICHOLAS AV,40.810526,-73.952174,0.07169592641861718,4.609023841196894
M101,OH_H3-Weekday-025000_M101_2,M1010016,EAST VILLAGE 3 AV-6 ST via LEX AV,04:37:31,402657,29,1,0.0113888888888888,W 125 ST/FRED DOUGLASS BL,40.809908,-73.950705,0.05110998234221005,4.487705766633113
M101,OH_H3-Weekday-025000_M101_2,M1010016,EAST VILLAGE 3 AV-6 ST via LEX AV,04:38:51,402658,30,1,0.0222222222222221,W 125 ST/ADAM C POWELL BL,40.8087,-73.947836,0.09988263082285202,4.494718387028366
M101,OH_H3-Weekday-025000_M101_2,M1010016,EAST VILLAGE 3 AV-6 ST via LEX AV,04:40:10,402659,31,1,0.0219444444444443,W 125 ST/MALCOLM X  BL,40.807514,-73.945026,0.09799790290523615,4.465727220998132
M101,OH_H3-Weekday-025000_M101_2,M1010016,EAST VILLAGE 3 AV-6 ST via LEX AV,04:41:38,402660,32,1,0.0244444444444447,E 125 ST/5 AV,40.806201,-73.941853,0.10915285564339806,4.465344094502601
M101,OH_H3-Weekday-025000_M101_2,M1010016,EAST VILLAGE 3 AV-6 ST via LEX AV,04:42:21,402661,33,1,0.0119444444444445,E 125 ST/MADISON AV,40.805533,-73.940296,0.05493371754955574,4.599101934381389
M101,OH_H3-Weekday-025000_M101_2,M1010016,EAST VILLAGE 3 AV-6 ST via LEX AV,04:43:09,402662,34,1,0.0133333333333327,E 125 ST/PARK AV,40.804799,-73.938583,0.060385498454556194,4.52891238409193
M101,OH_H3-Weekday-025000_M101_2,M1010016,EAST VILLAGE 3 AV-6 ST via LEX AV,04:44:00,404255,35,1,0.0141666666666671,LEXINGTON AV/E 124 ST,40.803886,-73.937851,0.06463588162256112,4.56253282041594
M101,OH_H3-Weekday-025000_M101_2,M1010016,EAST VILLAGE 3 AV-6 ST via LEX AV,04:44:48,402805,36,1,0.0133333333333336,LEXINGTON AV/E 122 ST,40.802094,-73.939144,0.12629791232365367,9.472343424273836
M101,OH_H3-Weekday-025000_M101_2,M1010016,EAST VILLAGE 3 AV-6 ST via LEX AV,04:45:39,405057,37,1,0.0141666666666662,LEXINGTON AV/E 119 ST,40.800189,-73.94052,0.13426708398747303,9.477676516763115
M101,OH_H3-Weekday-025000_M101_2,M1010016,EAST VILLAGE 3 AV-6 ST via LEX AV,04:46:34,403416,38,1,0.0152777777777775,LEXINGTON AV/E 116 ST,40.798149,-73.942022,0.14388930126492536,9.418208810068013
M101,OH_H3-Weekday-025000_M101_2,M1010016,EAST VILLAGE 3 AV-6 ST via LEX AV,04:47:01,402809,39,1,0.0075000000000002,LEXINGTON AV/E 114 ST,40.797178,-73.942746,0.06852314420225959,9.136419226967702
M101,OH_H3-Weekday-025000_M101_2,M1010016,EAST VILLAGE 3 AV-6 ST via LEX AV,04:48:11,402811,40,1,0.0194444444444448,LEXINGTON AV/E 110 ST,40.794544,-73.944667,0.185715720914295,9.551094218449283
M101,OH_H3-Weekday-025000_M101_2,M1010016,EAST VILLAGE 3 AV-6 ST via LEX AV,04:49:23,403417,41,1,0.0199999999999995,LEXINGTON AV/E 106 ST,40.791892,-73.946585,0.18692329686168782,9.346164843084624
M101,OH_H3-Weekday-025000_M101_2,M1010016,EAST VILLAGE 3 AV-6 ST via LEX AV,04:49:58,401973,42,1,0.0097222222222219,LEXINGTON AV/E 104 ST,40.79057,-73.947556,0.09323563547419797,9.589951077346395
M101,OH_H3-Weekday-025000_M101_2,M1010016,EAST VILLAGE 3 AV-6 ST via LEX AV,04:50:31,401974,43,1,0.0091666666666672,LEXINGTON AV/E 102 ST,40.789366,-73.948437,0.08490071240481778,9.261895898706856
M101,OH_H3-Weekday-025000_M101_2,M1010016,EAST VILLAGE 3 AV-6 ST via LEX AV,04:51:00,402816,44,1,0.008055555555555,LEXINGTON AV/E 100 ST,40.78827,-73.949209,0.07717333780735053,9.58013848643038
M101,OH_H3-Weekday-025000_M101_2,M1010016,EAST VILLAGE 3 AV-6 ST via LEX AV,04:51:44,403749,45,1,0.0122222222222223,LEXINGTON AV/E 98 ST,40.787269,-73.949971,0.07069988987655902,5.784536444445702
M101,OH_H3-Weekday-025000_M101_2,M1010016,EAST VILLAGE 3 AV-6 ST via LEX AV,04:53:00,403418,46,1,0.0211111111111117,LEXINGTON AV/E 96 ST,40.785502,-73.951206,0.12438532299203496,5.891936352254123
M101,OH_H3-Weekday-025000_M101_2,M1010016,EAST VILLAGE 3 AV-6 ST via LEX AV,04:53:22,402819,47,1,0.0061111111111102,LEXINGTON AV/E 94 ST,40.784406,-73.952025,0.07734952562427709,12.65719510215632
M101,OH_H3-Weekday-025000_M101_2,M1010016,EAST VILLAGE 3 AV-6 ST via LEX AV,04:53:52,404947,48,1,0.0083333333333337,LEXINGTON AV/E 92 ST,40.78294,-73.953141,0.10354179297264361,12.425015156716688
M101,OH_H3-Weekday-025000_M101_2,M1010016,EAST VILLAGE 3 AV-6 ST via LEX AV,04:54:29,405066,49,1,0.0102777777777776,LEXINGTON AV/E 89 ST,40.78113,-73.954451,0.12757701206953295,12.412898471630449
M101,OH_H3-Weekday-025000_M101_2,M1010016,EAST VILLAGE 3 AV-6 ST via LEX AV,04:55:05,403419,50,1,0.0099999999999997,LEXINGTON AV/E 86 ST,40.77931,-73.955763,0.12826187673326367,12.826187673326752
M101,OH_H3-Weekday-025000_M101_2,M1010016,EAST VILLAGE 3 AV-6 ST via LEX AV,04:55:48,404321,51,1,0.0119444444444445,LEXINGTON AV/E 83 ST,40.777227,-73.957311,0.146971709875806,12.304608268672071
M101,OH_H3-Weekday-025000_M101_2,M1010016,EAST VILLAGE 3 AV-6 ST via LEX AV,04:56:35,402826,52,1,0.0130555555555558,LEXINGTON AV/E 79 ST,40.774868,-73.959032,0.16632267761648323,12.739609349347413
M101,OH_H3-Weekday-025000_M101_2,M1010016,EAST VILLAGE 3 AV-6 ST via LEX AV,04:57:07,404854,53,1,0.0088888888888885,LEXINGTON AV/E 77 ST,40.773296,-73.960162,0.11077127777542564,12.46176874973593
M101,OH_H3-Weekday-025000_M101_2,M1010016,EAST VILLAGE 3 AV-6 ST via LEX AV,04:57:46,402829,54,1,0.0108333333333341,LEXINGTON AV/E 74 ST,40.771396,-73.961556,0.13398950585562983,12.368262078980338
M101,OH_H3-Weekday-025000_M101_2,M1010016,EAST VILLAGE 3 AV-6 ST via LEX AV,04:58:07,403421,55,1,0.0058333333333333,LEXINGTON AV/E 72 ST,40.770316,-73.962352,0.07617602219765444,13.058746662455123
M101,OH_H3-Weekday-025000_M101_2,M1010016,EAST VILLAGE 3 AV-6 ST via LEX AV,04:58:39,402831,56,1,0.0088888888888885,LEXINGTON AV/E 70 ST,40.768759,-73.96348,0.10974624677084655,12.346452761720776
M101,OH_H3-Weekday-025000_M101_2,M1010016,EAST VILLAGE 3 AV-6 ST via LEX AV,04:59:00,403422,57,1,0.0058333333333333,LEXINGTON AV/E 68 ST,40.767713,-73.964248,0.0737663664038457,12.645662812087908
M101,OH_H3-Weekday-025000_M101_2,M1010016,EAST VILLAGE 3 AV-6 ST via LEX AV,04:59:54,803158,58,1,0.0149999999999996,LEXINGTON AV/E 64 ST,40.765179,-73.966088,0.17862556608996996,11.90837107266498
M101,OH_H3-Weekday-025000_M101_2,M1010016,EAST VILLAGE 3 AV-6 ST via LEX AV,05:00:23,402835,59,1,0.0080555555555559,LEXINGTON AV/E 62 ST,40.763812,-73.967079,0.09635556883718888,11.961380959098797
M101,OH_H3-Weekday-025000_M101_2,M1010016,EAST VILLAGE 3 AV-6 ST via LEX AV,05:01:00,404171,60,1,0.0102777777777776,LEXINGTON AV/E 59 ST,40.762106,-73.968336,0.12032676217596791,11.70746875225654
M101,OH_H3-Weekday-025000_M101_2,M1010016,EAST VILLAGE 3 AV-6 ST via LEX AV,05:01:42,402838,61,1,0.0116666666666667,LEXINGTON AV/E 56 ST,40.76012,-73.969776,0.13998710944146736,11.998895094982883
M101,OH_H3-Weekday-025000_M101_2,M1010016,EAST VILLAGE 3 AV-6 ST via LEX AV,05:02:35,803163,62,1,0.0147222222222218,LEXINGTON AV/E 52 ST,40.757636,-73.971598,0.17516773757931578,11.898185948784054
M101,OH_H3-Weekday-025000_M101_2,M1010016,EAST VILLAGE 3 AV-6 ST via LEX AV,05:02:58,403424,63,1,0.0063888888888889,LEXINGTON AV/E 50 ST,40.756586,-73.972348,0.07396866926828617,11.577704755036077
M101,OH_H3-Weekday-025000_M101_2,M1010016,EAST VILLAGE 3 AV-6 ST via LEX AV,05:03:50,402842,64,1,0.0144444444444449,LEXINGTON AV/E 46 ST,40.754142,-73.974132,0.17231322492639153,11.929377110288268
M101,OH_H3-Weekday-025000_M101_2,M1010016,EAST VILLAGE 3 AV-6 ST via LEX AV,05:05:00,403425,65,1,0.0194444444444439,LEXINGTON AV/E 42 ST,40.750843,-73.976533,0.2325667470169357,11.960575560871314
M101,OH_H3-Weekday-025000_M101_2,M1010016,EAST VILLAGE 3 AV-6 ST via LEX AV,05:05:26,402845,66,1,0.0072222222222224,LEXINGTON AV/E 40 ST,40.749766,-73.977317,0.07592466553386107,10.51264599699589
M101,OH_H3-Weekday-025000_M101_2,M1010016,EAST VILLAGE 3 AV-6 ST via LEX AV,05:05:59,402846,67,1,0.0091666666666663,LEXINGTON AV/E 37 ST,40.748387,-73.978325,0.09723004710734773,10.606914229892903
M101,OH_H3-Weekday-025000_M101_2,M1010016,EAST VILLAGE 3 AV-6 ST via LEX AV,05:06:51,403821,68,1,0.0144444444444449,LEXINGTON AV/E 34 ST,40.746226,-73.979892,0.15231916200753648,10.545172754367577
M101,OH_H3-Weekday-025000_M101_2,M1010016,EAST VILLAGE 3 AV-6 ST via LEX AV,05:07:43,403822,69,1,0.014444444444444,LEXINGTON AV/E 31 ST,40.744101,-73.981463,0.14989485688069784,10.377336245587093
M101,OH_H3-Weekday-025000_M101_2,M1010016,EAST VILLAGE 3 AV-6 ST via LEX AV,05:08:25,402851,70,1,0.0116666666666667,LEXINGTON AV/E 28 ST,40.742375,-73.982721,0.12168124147014979,10.42982069744138
M101,OH_H3-Weekday-025000_M101_2,M1010016,EAST VILLAGE 3 AV-6 ST via LEX AV,05:08:55,402852,71,1,0.0083333333333337,LEXINGTON AV/E 26 ST,40.741117,-73.983648,0.08872567637748606,10.647081165297859
M101,OH_H3-Weekday-025000_M101_2,M1010016,EAST VILLAGE 3 AV-6 ST via LEX AV,05:09:23,405272,72,1,0.0077777777777772,EAST 24 ST/LEXINGTON AV,40.739992,-73.984009,0.07805856726304336,10.036101505249178
M101,OH_H3-Weekday-025000_M101_2,M1010016,EAST VILLAGE 3 AV-6 ST via LEX AV,05:10:00,402854,73,1,0.0102777777777784,3 AV/E 23 ST,40.738982,-73.983129,0.07179497446582661,6.985456975052976
M101,OH_H3-Weekday-025000_M101_2,M1010016,EAST VILLAGE 3 AV-6 ST via LEX AV,05:11:09,403772,74,1,0.0191666666666661,3 AV/E 20 ST,40.736709,-73.984763,0.16015876884906108,8.356109679081694
M101,OH_H3-Weekday-025000_M101_2,M1010016,EAST VILLAGE 3 AV-6 ST via LEX AV,05:12:05,402856,75,1,0.0155555555555562,3 AV/E 17 ST,40.73487,-73.986103,0.12964524829408333,8.334337390333584
M101,OH_H3-Weekday-025000_M101_2,M1010016,EAST VILLAGE 3 AV-6 ST via LEX AV,05:13:03,404106,76,1,0.0161111111111109,3 AV/E 14 ST,40.732955,-73.987502,0.13501626189437188,8.38031970378871
M101,OH_H3-Weekday-025000_M101_2,M1010016,EAST VILLAGE 3 AV-6 ST via LEX AV,05:14:04,402858,77,1,0.0169444444444444,3 AV/E 11 ST,40.730973,-73.988946,0.13972475317799024,8.246051007225674
M101,OH_H3-Weekday-025000_M101_2,M1010016,EAST VILLAGE 3 AV-6 ST via LEX AV,05:15:00,903148,78,1,0.0155555555555553,3 AV/ASTOR PL,40.729113,-73.990259,0.1309679100856239,8.419365648361675
