route_id,trip_id,shape_id,trip_headsign,arrival_time,stop_id,stop_sequence,direction_id,timedifference,stop_name,stop_lat,stop_lon,distanceinmiles,speed,dist_from_start
M15,OH_A3-Weekday-SDon-021000_M15_202,M150019,EAST HARLEM 125 ST via 1 AV,03:30:00,803019,1,0,,SOUTH ST/WHITEHALL ST,40.701536,-74.012485,,,
M15,OH_A3-Weekday-SDon-021000_M15_202,M150019,EAST HARLEM 125 ST via 1 AV,03:31:10,401664,2,0,0.0194444444444443,WATER ST/BROAD ST,40.703036,-74.010834,0.1083322057700148,5.571370582457948,0.1083322057700148
M15,OH_A3-Weekday-SDon-021000_M15_202,M150019,EAST HARLEM 125 ST via 1 AV,03:32:05,401665,3,0,0.0152777777777779,WATER ST/OLD SLIP,40.704274,-74.00849,0.0965037654444987,6.316610101821686,0.2048359712145135
M15,OH_A3-Weekday-SDon-021000_M15_202,M150019,EAST HARLEM 125 ST via 1 AV,03:32:42,401666,4,0,0.0102777777777776,WATER ST/WALL ST,40.705287,-74.007109,0.0747890450424281,7.276771950074213,0.2796250162569416
M15,OH_A3-Weekday-SDon-021000_M15_202,M150019,EAST HARLEM 125 ST via 1 AV,03:34:07,404850,5,0,0.0236111111111112,PEARL ST/FULTON ST,40.70755,-74.003857,0.1682226066741495,7.124722165022776,0.4478476229310911
M15,OH_A3-Weekday-SDon-021000_M15_202,M150019,EAST HARLEM 125 ST via 1 AV,03:34:57,401669,6,0,0.0138888888888888,PEARL ST/PECK SLIP,40.708968,-74.002171,0.103132368625986,7.425530541071042,0.5509799915570771
M15,OH_A3-Weekday-SDon-021000_M15_202,M150019,EAST HARLEM 125 ST via 1 AV,03:35:47,401670,7,0,0.0138888888888888,ST JAMES PL/R F WAGNER SR PL,40.710594,-74.000752,0.1155861146929082,8.322200257889444,0.6665661062499854
M15,OH_A3-Weekday-SDon-021000_M15_202,M150019,EAST HARLEM 125 ST via 1 AV,03:36:58,402088,8,0,0.0197222222222221,MADISON ST/OLIVER ST,40.711877,-73.997922,0.1037789840514807,5.262032994159617,0.770345090301466
M15,OH_A3-Weekday-SDon-021000_M15_202,M150019,EAST HARLEM 125 ST via 1 AV,03:38:13,402090,9,0,0.0208333333333334,MADISON ST/MARKET ST,40.712207,-73.994092,0.0764627705613239,3.6702129869435383,0.8468078608627899
M15,OH_A3-Weekday-SDon-021000_M15_202,M150019,EAST HARLEM 125 ST via 1 AV,03:39:00,404843,10,0,0.0130555555555553,PIKE ST/MADISON ST,40.71288,-73.992288,0.0578419527731717,4.430447446455792,0.9046498136359616
M15,OH_A3-Weekday-SDon-021000_M15_202,M150019,EAST HARLEM 125 ST via 1 AV,03:39:38,401675,11,0,0.0105555555555554,PIKE ST/DIVISION ST,40.714303,-73.992468,0.0984105173022417,9.32310163915988,1.0030603309382033
M15,OH_A3-Weekday-SDon-021000_M15_202,M150019,EAST HARLEM 125 ST via 1 AV,03:40:59,405320,12,0,0.0225000000000004,ALLEN ST/GRAND ST,40.717171,-73.991222,0.199639539144679,8.872868406430023,1.2026998700828824
M15,OH_A3-Weekday-SDon-021000_M15_202,M150019,EAST HARLEM 125 ST via 1 AV,03:42:07,401679,13,0,0.0188888888888887,ALLEN ST/DELANCEY ST,40.719558,-73.989999,0.1666165386051724,8.820875573215098,1.3693164086880547
M15,OH_A3-Weekday-SDon-021000_M15_202,M150019,EAST HARLEM 125 ST via 1 AV,03:43:13,401681,14,0,0.018333333333333,ALLEN ST/STANTON ST,40.721896,-73.988839,0.1630969781536065,8.8961988083787,1.5324133868416612
M15,OH_A3-Weekday-SDon-021000_M15_202,M150019,EAST HARLEM 125 ST via 1 AV,03:44:00,401682,15,0,0.0130555555555558,1 AV/E 2 ST,40.723561,-73.988177,0.1157665050370132,8.867221662409358,1.6481798918786743
M15,OH_A3-Weekday-SDon-021000_M15_202,M150019,EAST HARLEM 125 ST via 1 AV,03:44:40,405098,16,0,0.011111111111111,1 AV / 4 ST,40.725463,-73.986785,0.134108899522395,12.069800957015673,1.7822887914010692
M15,OH_A3-Weekday-SDon-021000_M15_202,M150019,EAST HARLEM 125 ST via 1 AV,03:45:30,401685,17,0,0.0138888888888888,1 AV/ST MARKS PL,40.727823,-73.985061,0.1663907912208286,11.98013696789974,1.9486795826218979
M15,OH_A3-Weekday-SDon-021000_M15_202,M150019,EAST HARLEM 125 ST via 1 AV,03:46:08,401686,18,0,0.0105555555555554,1 AV/E 11 ST,40.729636,-73.983733,0.1278387888625824,12.111043155402728,2.07651837148448
M15,OH_A3-Weekday-SDon-021000_M15_202,M150019,EAST HARLEM 125 ST via 1 AV,03:47:00,401687,19,0,0.0144444444444444,1 AV/E 14 ST,40.732122,-73.981946,0.1751670481152691,12.126949484903282,2.2516854195997493
M15,OH_A3-Weekday-SDon-021000_M15_202,M150019,EAST HARLEM 125 ST via 1 AV,03:47:25,401688,20,0,0.0069444444444446,1 AV/E 17 ST,40.733155,-73.981188,0.0728447602704706,10.489645478947535,2.32453017987022
M15,OH_A3-Weekday-SDon-021000_M15_202,M150019,EAST HARLEM 125 ST via 1 AV,03:48:13,401689,21,0,0.0133333333333331,1 AV/E 20 ST,40.735109,-73.979751,0.1378039684347825,10.335297632608867,2.4623341483050023
M15,OH_A3-Weekday-SDon-021000_M15_202,M150019,EAST HARLEM 125 ST via 1 AV,03:49:00,401690,22,0,0.0130555555555558,1 AV/E 23 ST,40.737053,-73.978368,0.1369249854550189,10.487871226341678,2.5992591337600213
M15,OH_A3-Weekday-SDon-021000_M15_202,M150019,EAST HARLEM 125 ST via 1 AV,03:49:36,401691,23,0,0.0099999999999997,1 AV/E 25 ST,40.738501,-73.977296,0.1021465579136365,10.21465579136396,2.7014056916736577
M15,OH_A3-Weekday-SDon-021000_M15_202,M150019,EAST HARLEM 125 ST via 1 AV,03:50:03,405396,24,0,0.0074999999999998,1 AV/E 27 ST,40.739627,-73.976496,0.0793059289173773,10.574123855650596,2.780711620591035
M15,OH_A3-Weekday-SDon-021000_M15_202,M150019,EAST HARLEM 125 ST via 1 AV,03:50:26,404995,25,0,0.0063888888888889,1 AV/E 28 ST,40.74057,-73.975823,0.06642816904916,10.397452546825036,2.8471397896401953
M15,OH_A3-Weekday-SDon-021000_M15_202,M150019,EAST HARLEM 125 ST via 1 AV,03:51:00,401694,26,0,0.0094444444444445,1 AV/E 31 ST,40.741957,-73.974808,0.0977990416971708,10.355192650288618,2.944938831337366
M15,OH_A3-Weekday-SDon-021000_M15_202,M150019,EAST HARLEM 125 ST via 1 AV,03:51:54,403480,27,0,0.0150000000000001,1 AV/E 34 ST,40.744172,-73.973187,0.1561830880143062,10.412205867620347,3.101121919351672
M15,OH_A3-Weekday-SDon-021000_M15_202,M150019,EAST HARLEM 125 ST via 1 AV,03:52:22,401696,28,0,0.0077777777777776,1 AV/E 36 ST,40.745324,-73.972349,0.0812104542324918,10.44134411560634,3.1823323735841638
M15,OH_A3-Weekday-SDon-021000_M15_202,M150019,EAST HARLEM 125 ST via 1 AV,03:53:08,401697,29,0,0.0127777777777775,1 AV/E 39 ST,40.747191,-73.970988,0.1316257139055765,10.301142827393171,3.3139580874897403
M15,OH_A3-Weekday-SDon-021000_M15_202,M150019,EAST HARLEM 125 ST via 1 AV,03:54:00,401698,30,0,0.0144444444444444,1 AV/E 42 ST,40.749251,-73.969332,0.145842705847029,10.096802712486658,3.459800793336769
M15,OH_A3-Weekday-SDon-021000_M15_202,M150019,EAST HARLEM 125 ST via 1 AV,03:54:26,401699,31,0,0.0072222222222224,1 AV/E 45 ST,40.750684,-73.96846,0.1004305681322642,13.905770972159328,3.5602313614690333
M15,OH_A3-Weekday-SDon-021000_M15_202,M150019,EAST HARLEM 125 ST via 1 AV,03:55:22,401701,32,0,0.0155555555555553,1 AV/MITCHELL PL,40.753591,-73.966311,0.2050622986018204,13.182576338688673,3.7652936600708538
M15,OH_A3-Weekday-SDon-021000_M15_202,M150019,EAST HARLEM 125 ST via 1 AV,03:55:55,401702,33,0,0.0091666666666667,1 AV/E 52 ST,40.755395,-73.964983,0.1272348885099654,13.88016965563254,3.892528548580819
M15,OH_A3-Weekday-SDon-021000_M15_202,M150019,EAST HARLEM 125 ST via 1 AV,03:56:30,401703,34,0,0.0097222222222224,1 AV/E 55 ST,40.75726,-73.963631,0.1314586521001426,13.521461358871573,4.023987200680962
M15,OH_A3-Weekday-SDon-021000_M15_202,M150019,EAST HARLEM 125 ST via 1 AV,03:57:00,401704,35,0,0.0083333333333333,1 AV/E 57 ST,40.758829,-73.962462,0.1107147479703017,13.285769756436268,4.134701948651263
M15,OH_A3-Weekday-SDon-021000_M15_202,M150019,EAST HARLEM 125 ST via 1 AV,03:57:20,405138,36,0,0.0055555555555555,1 AV/E 60 ST,40.759751,-73.961795,0.064984341536399,11.697181476551943,4.199686290187662
M15,OH_A3-Weekday-SDon-021000_M15_202,M150019,EAST HARLEM 125 ST via 1 AV,03:58:01,404253,37,0,0.0113888888888888,1 AV/E 62 ST,40.761632,-73.960457,0.132492300098266,11.633470252530763,4.332178590285928
M15,OH_A3-Weekday-SDon-021000_M15_202,M150019,EAST HARLEM 125 ST via 1 AV,03:58:30,401706,38,0,0.0080555555555554,1 AV/E 64 ST,40.762984,-73.959485,0.0952693841772259,11.82654424269034,4.4274479744631545
M15,OH_A3-Weekday-SDon-021000_M15_202,M150019,EAST HARLEM 125 ST via 1 AV,03:59:11,401707,39,0,0.0113888888888888,1 AV/E 67 ST,40.76487,-73.958109,0.1329736230076664,11.675732751892754,4.560421597470821
M15,OH_A3-Weekday-SDon-021000_M15_202,M150019,EAST HARLEM 125 ST via 1 AV,03:59:52,401708,40,0,0.0113888888888888,1 AV/E 70 ST,40.766741,-73.956738,0.1319389530554335,11.584883682916203,4.692360550526255
M15,OH_A3-Weekday-SDon-021000_M15_202,M150019,EAST HARLEM 125 ST via 1 AV,04:00:21,401709,41,0,0.0080555555555554,1 AV/E 72 ST,40.768087,-73.955742,0.0949542872336359,11.787428760037796,4.78731483775989
M15,OH_A3-Weekday-SDon-021000_M15_202,M150019,EAST HARLEM 125 ST via 1 AV,04:01:02,401710,42,0,0.0113888888888888,1 AV/E 75 ST,40.769986,-73.95435,0.1339160453375633,11.758482029639804,4.921230883097453
M15,OH_A3-Weekday-SDon-021000_M15_202,M150019,EAST HARLEM 125 ST via 1 AV,04:01:30,401711,43,0,0.0077777777777781,1 AV/E 77 ST,40.771254,-73.953421,0.0894168827939833,11.496456359225956,5.010647765891437
M15,OH_A3-Weekday-SDon-021000_M15_202,M150019,EAST HARLEM 125 ST via 1 AV,04:02:00,401712,44,0,0.0083333333333328,1 AV/E 79 ST,40.772633,-73.952403,0.0972738275990404,11.672859311885594,5.107921593490477
M15,OH_A3-Weekday-SDon-021000_M15_202,M150019,EAST HARLEM 125 ST via 1 AV,04:02:32,405100,45,0,0.0088888888888893,1 AV/E 82 ST,40.774585,-73.950985,0.1376061186240927,15.480688345209716,5.24552771211457
M15,OH_A3-Weekday-SDon-021000_M15_202,M150019,EAST HARLEM 125 ST via 1 AV,04:03:13,401715,46,0,0.0113888888888888,1 AV/E 86 ST,40.777168,-73.94911,0.1820839384895678,15.98785801371828,5.427611650604137
M15,OH_A3-Weekday-SDon-021000_M15_202,M150019,EAST HARLEM 125 ST via 1 AV,04:03:44,401716,47,0,0.0086111111111115,1 AV/E 89 ST,40.779039,-73.947728,0.1319836987876491,15.327139214048884,5.5595953493917865
M15,OH_A3-Weekday-SDon-021000_M15_202,M150019,EAST HARLEM 125 ST via 1 AV,04:04:24,401718,48,0,0.011111111111111,1 AV/E 93 ST,40.781562,-73.945891,0.1778766208135409,16.008895873218844,5.737471970205327
M15,OH_A3-Weekday-SDon-021000_M15_202,M150019,EAST HARLEM 125 ST via 1 AV,04:05:00,903275,49,0,0.0099999999999997,1 AV/E 97 ST,40.783781,-73.944277,0.1564383920544235,15.643839205442822,5.89391036225975
M15,OH_A3-Weekday-SDon-021000_M15_202,M150019,EAST HARLEM 125 ST via 1 AV,04:05:33,401721,50,0,0.0091666666666663,1 AV/E 99 ST,40.785414,-73.943097,0.1150968618841833,12.556021296456866,6.009007224143933
M15,OH_A3-Weekday-SDon-021000_M15_202,M150019,EAST HARLEM 125 ST via 1 AV,04:06:12,401722,51,0,0.0108333333333332,1 AV/E 102 ST,40.787357,-73.941682,0.1369880026417881,12.645046397703677,6.145995226785721
M15,OH_A3-Weekday-SDon-021000_M15_202,M150019,EAST HARLEM 125 ST via 1 AV,04:07:03,401723,52,0,0.0141666666666671,1 AV/E 106 ST,40.789858,-73.939854,0.1763546375675403,12.448562651826,6.322349864353261
M15,OH_A3-Weekday-SDon-021000_M15_202,M150019,EAST HARLEM 125 ST via 1 AV,04:07:40,401724,53,0,0.0102777777777776,1 AV/E 108 ST,40.791692,-73.938512,0.1293282676161776,12.583290903195875,6.451678131969438
M15,OH_A3-Weekday-SDon-021000_M15_202,M150019,EAST HARLEM 125 ST via 1 AV,04:08:08,401725,54,0,0.0077777777777781,1 AV/E 111 ST,40.793101,-73.937481,0.0993587535666941,12.774696887145854,6.551036885536132
M15,OH_A3-Weekday-SDon-021000_M15_202,M150019,EAST HARLEM 125 ST via 1 AV,04:08:33,401726,55,0,0.0069444444444437,1 AV/E 113 ST,40.79433,-73.936584,0.0866571766353552,12.478633435492489,6.637694062171487
M15,OH_A3-Weekday-SDon-021000_M15_202,M150019,EAST HARLEM 125 ST via 1 AV,04:09:13,401727,56,0,0.0111111111111119,1 AV/E 116 ST,40.796323,-73.935122,0.1405554818066474,12.649993362597368,6.778249543978134
M15,OH_A3-Weekday-SDon-021000_M15_202,M150019,EAST HARLEM 125 ST via 1 AV,04:10:06,401729,57,0,0.0147222222222218,1 AV/E 120 ST,40.798936,-73.933223,0.184213985047923,12.512648040991358,6.962463529026057
M15,OH_A3-Weekday-SDon-021000_M15_202,M150019,EAST HARLEM 125 ST via 1 AV,04:10:35,401730,58,0,0.0080555555555559,1 AV/PALADINO AV,40.80036,-73.932182,0.100414077236882,12.465195794922751,7.062877606262939
M15,OH_A3-Weekday-SDon-021000_M15_202,M150019,EAST HARLEM 125 ST via 1 AV,04:11:00,401731,59,0,0.0069444444444437,1 AV/E 125 ST,40.801611,-73.931268,0.088213089685981,12.70268491478264,7.15109069594892
M15,OH_A3-Weekday-SDon-021000_M15_202,M150019,EAST HARLEM 125 ST via 1 AV,04:13:00,803054,60,0,0.0333333333333332,E 126 ST/2 AV,40.80315,-73.932264,0.1080610386764988,3.2418311602949794,7.259151734625418
